[
  {
    "id": 1,
    "catId": 6,
    "name": "NSPIRE Outreach",
    "description": "NSPIRE leases apartments and houses that provide excellent living arrangements for all of our participants, now over 100 strong. The consistent housing environment allows our clients the stability to work on rebuilding their lives and futures.",
    "street": "1305 Lakes Pkwy",
    "city": "Lawrenceville",
    "state": "GA",
    "zip": "30043",
    "phone": "(800) 775-9020",
    "website": "https://nspireoutreach.org/",
    "email": null,
    "photo": null,
    "lng": "-84.042906",
    "lat": "33.962139",
    "uploadedPhoto": null,
    "cat": null
  },
  {
    "id": 2,
    "catId": 2,
    "name": "First Step Staffing",
    "description": "We aim to employ those who struggle most to break their own cycles of poverty, giving preference to those who have recently experienced homelessness, military veterans, and individuals who have been previously incarcerated.\r\n\r\nFirst Step has jobs in the Gwinnett County area but you have to go to their Atlanta office to fill out an application and interview.",
    "street": "236 Auburn Ave., Suite 203",
    "city": "Atlanta",
    "state": "GA",
    "zip": "30303",
    "phone": "(404) 577-3395",
    "website": "https://firststepstaffing.com/",
    "email": null,
    "photo": "logo-new[1].svg",
    "lng": "-84.161504",
    "lat": "33.977529",
    "uploadedPhoto": null,
    "cat": null
  },
  {
    "id": 3,
    "catId": 9,
    "name": "Navigate Recovery-Safe Harbor",
    "description": "As a trusted nonprofit organization, Navigate Recovery Gwinnett exists to aid addiction sufferers and their families, while bolstering the community support needed to transform the landscape of addiction care in Gwinnett. Everything we do is focused on achieving better care and better results for addiction treatment. We believe the chronic condition of addiction is best treated in a self-directed, recovery-oriented system of care. We act as a connector, guiding individuals to the appropriate care for their recovery so they can find wellness and thrive.",
    "street": "52 Gwinnett Dr",
    "city": "Lawrenceville",
    "state": "GA",
    "zip": "30046",
    "phone": "(678) 743-1808",
    "website": "http://www.navigaterecoverygwinnett.org/",
    "email": null,
    "photo": "92843840_272297680440865_3026099038953930752_n.jpg",
    "lng": "-83.996491",
    "lat": "33.947120",
    "uploadedPhoto": null,
    "cat": null
  },
  {
    "id": 4,
    "catId": 8,
    "name": "Bridge The Gap Ministries",
    "description": "\"Our Mission is: To intercept and redirect, with the help of God, the sad and seemingly hopeless lives of those who are repeatedly going through the revolving prison doors in our community with the Gospel of Jesus Christ, turning them from regret and defeat to hope, peace, joy and acceptance by belonging to God’s family.\r\nJust incarceration, i.e. punishment, is not enough. These broken vessels need a positive, powerful, hopeful message, a life-altering dynamic that only Christ can bring about. The Gospel is the power of God that changes individual lives, rebuilds trust and families and impacts whole communities. The promise of God from Malachi 4:6 that says, “ that He (Messiah) would restore the hearts of the fathers to their children and the hearts of the children to their fathers.\"",
    "street": "2860 Lenora Springs Dr",
    "city": "Snellville",
    "state": "GA",
    "zip": "30039",
    "phone": "(770) 601-0265",
    "website": "http://www.bridgethegapministries.org/",
    "email": null,
    "photo": null,
    "lng": "-84.002423",
    "lat": "33.809405",
    "uploadedPhoto": null,
    "cat": null
  },
  {
    "id": 5,
    "catId": 7,
    "name": "Hearts to Nourish Hope",
    "description": "Hearts to Nourish Hope is a community-driven nonprofit that provides high quality programs to identify and develop the internal resources of youth aged 16-24 in Clayton, Fayette and Gwinnett Counties. Like all grassroots non-profits, we grew from a very simple idea - if youth were provided constructive activities to do when they were suspended or expelled, they would be less likely to engage in dangerous, illegal and risky behavior.",
    "street": "640 GA-138",
    "city": "Riverdale",
    "state": "GA",
    "zip": "30274",
    "phone": "(770) 997-4511",
    "website": "http://www.heartstonourishhope.org/",
    "email": "hearts@heartstonourishhope.org",
    "photo": "hope.png",
    "lng": "-84.411582",
    "lat": "33.547124",
    "uploadedPhoto": null,
    "cat": null
  },
  {
    "id": 6,
    "catId": 9,
    "name": "ViewPoint Health",
    "description": "\"VISION:\r\n\r\nBuilding healthy lives and healthy families through high quality comprehensive care.\r\n\r\nMISSION:\r\n\r\nTo promote overall health and improve quality of life by ensuring the delivery of effective behavioral and physical health care that meets the needs of communities we serve.\"",
    "street": "175 Gwinnett Drive #330",
    "city": "Lawrenceville",
    "state": "GA",
    "zip": "30046",
    "phone": "(678) 209-2370",
    "website": "http://www.myviewpointhealth.org/",
    "email": null,
    "photo": null,
    "lng": "-83.994204",
    "lat": "33.943864",
    "uploadedPhoto": null,
    "cat": null
  },
  {
    "id": 7,
    "catId": 11,
    "name": "U.P. Lift",
    "description": "U.P. Lift bridges the gap between our riders and Uber/Lyft, two popular ride-sharing services. Our users call us to schedule a ride, and we schedule a driver to pick them up at their desired time and place. We then coordinate the ride by alerting the Uber/Lyft drivers of who to pick up, and then we call our rider once the driver has arrived. We ensure that the trip goes smoothly by tracking our rider's trip and calling them once the trip has concluded.",
    "street": "2900 University Pkwy",
    "city": "Lawrenceville",
    "state": "GA",
    "zip": "30043",
    "phone": "(404) 419-6264",
    "website": "https://www.uplifts.org/",
    "email": "admin@thesource.church",
    "photo": null,
    "lng": "-83.977976",
    "lat": "33.983170",
    "uploadedPhoto": null,
    "cat": null
  },
  {
    "id": 8,
    "catId": 6,
    "name": "Judy House Ministries",
    "description": "Transitional Housing services are for those who’ve been released from corrective programs and those chronically homeless in the Greater Gwinnett area. It’s a family-setting safe house environment with relational support, tools, and hope to establish people through the transitional process to gain a foothold as they reintegrate back into the community. Deeply structured daily accountability groups with regards to communication performance and reaching personal expectations of one’s hopes and dreams.\r\n\r\nREENTRY HOUSING ELIGIBILITY CRITERIA:\r\n\r\nArrivals (clients) without any plan of action are limited to one(1) night of provision. Clients without Identification are also subject to receive either one night, or no admittance.\r\n\r\nClients of any type will not arrive with more than the maximum amount of clothing allowed. All bags and personal belongings will be inventoried upon entrance.\r\n\r\nTwo phase interview screening process is used to determine whether persons can be a suitable fit.\r\n\r\nPlans of action are required upon entrance, which include personal contact for emergency, personal mentor/ sponsor, expectations (work, finance, personal improvements, etc.) and a display of initiative.\r\n\r\nProgram fees ($150) are required prior to beginning of each week. Persons can no longer be accepted with outstanding balance of two (2) weeks.\r\n\r\nMust be capable of being gainfully employed.\r\nIsolation, lack of communication, and lack of participation are sufficient signs to consider moving participants into other recommended programs away from Judy House.\r\n\r\nPrevious participants are discouraged from re-entering (though not excluded) due to familiarity and prone to feel exclusivity. Special consideration only.\r\n\r\nAll clients and participants must be 30-days clean and sober prior to entrance (and during stay). Special considerations only.\r\n\r\nAll long term housing, requires $150 application fee, and equal amount program fee. Special waivers may be considered upon intake interviews.",
    "street": "2900 University Pkwy",
    "city": "Lawrenceville",
    "state": "GA",
    "zip": "30043",
    "phone": "(678) 752-8731",
    "website": "https://www.judyhouse.org",
    "email": "info@judyhouse.org",
    "photo": "",
    "lng": "-83.973930",
    "lat": "33.982578",
    "uploadedPhoto": null,
    "cat": null
  },
  {
    "id": 9,
    "catId": 6,
    "name": "Vital Signs Re-Entry",
    "description": "We believe that every life is valuable to God and that none are beyond the reach of His power. We envision, pray, and believe in a future in which those who have been incarcerated can encounter the grace and love of Christ, develop a passionate relationship with Him, and be set free spiritually as well as physically. We equip volunteers from all walks of life to \"visit those in prison\" and to share the love of Jesus with continual support from the Body of Christ. We coach and prepare \"Returning Citizens\" to become leaders of their families, communities, and churches once they are released back into the community. We also support them and their families through ongoing coaching to ensure their successful re-entry.",
    "street": "2900 University Pkwy",
    "city": "Lawrenceville",
    "state": "GA",
    "zip": "30043",
    "phone": "(404) 419-6264",
    "website": "https://www.vitalsignsreentryministry.org/",
    "email": null,
    "photo": "",
    "lng": null,
    "lat": null,
    "uploadedPhoto": null,
    "cat": null
  },
  {
    "id": 10,
    "catId": 1,
    "name": "LifeChangers Legacy",
    "description": "LifeChangers Legacy Program is a prison program that helps women find their path through our specialized therapeutic interventions combined with biblical specialties program. We are a \"Station of Hope\" through the Department of Corrections Community Supervision Division.\r\n\r\nPrisoners who do not engage in a faith-based program have an extremely high recidivism rate (over 60%). These offenders who are released from prison are generally re-arrested within 3 years. Those who participate in a Christ-centered evidence based program have a recidivism rate of only 8%. ",
    "street": "2900 University Parkway",
    "city": "Lawrenceville",
    "state": "GA",
    "zip": "30043",
    "phone": "(678) 768-1978",
    "website": "https://www.lifechangerslegacy.org",
    "email": "info@lifechangerslegacy.org",
    "photo": "",
    "lng": null,
    "lat": null,
    "uploadedPhoto": null,
    "cat": null
  },
  {
    "id": 11,
    "catId": 4,
    "name": "Department of Community Supervision",
    "description": "This is the Lawrenceville field office for the Georgia Department of Community Supervision.  They supervise all Felony Probation cases for Gwinnett County.",
    "street": "410 West Oak Street",
    "city": "Lawrenceville",
    "state": "GA",
    "zip": "30046",
    "phone": "(770) 339-2222",
    "website": "https://dcs.georgia.gov/locations/lawrenceville",
    "email": null,
    "photo": "",
    "lng": "-83.993590",
    "lat": "33.959340",
    "uploadedPhoto": null,
    "cat": null
  },
  {
    "id": 12,
    "catId": 9,
    "name": "Someone Cares Inc., Atlanta",
    "description": "Someone Cares engages, educates and empowers individuals living with HIV/AIDS and other health disparities to achieve better health outcomes by eliminating barriers to culturally sensitive services, building a network for underserved groups, and increasing client resiliency. We offer the following; HIV Testing, STD Screening & Treatment, HEP C Screening & Treatment, PrEP Enrollment & Support Group, Drug Testing, Hormone Treatment Therapy, Substance Abuse (Drugs & Alcohol) Treatment & Counseling, Mental Health Treatment & Counseling, Opioid Addiction Treatment & Counseling, and Women’s Health",
    "street": "1950 Spectrum Circle, Suite 200",
    "city": "Marietta",
    "state": "GA",
    "zip": "30067",
    "phone": "678-921-2706",
    "website": "https://www.S1Catl.org",
    "email": "info@S1Catl.org",
    "photo": "logo-horizontal-no-city-2[1].png",
    "lng": "-84.468858",
    "lat": "33.906461",
    "uploadedPhoto": null,
    "cat": null
  },
  {
    "id": 13,
    "catId": 4,
    "name": "test location",
    "description": "something",
    "street": "2122 Clairmont Rd",
    "city": "Atlanta",
    "state": "GA",
    "zip": "30030",
    "phone": "111",
    "website": "",
    "email": "",
    "photo": null,
    "lng": "41.27065",
    "lat": "25.25499",
    "uploadedPhoto": null,
    "cat": null
  },
  {
    "id": 14,
    "catId": 4,
    "name": "test location",
    "description": "something",
    "street": "2122 Clairmont Rd",
    "city": "Atlanta",
    "state": "GA",
    "zip": "30030",
    "phone": "111",
    "website": "",
    "email": "",
    "photo": null,
    "lng": "41.27065",
    "lat": "25.25499",
    "uploadedPhoto": null,
    "cat": null
  },
  {
    "id": 15,
    "catId": 4,
    "name": "test location",
    "description": "something",
    "street": "2122 Clairmont Rd",
    "city": "Atlanta",
    "state": "GA",
    "zip": "30030",
    "phone": "111",
    "website": "",
    "email": "",
    "photo": null,
    "lng": "41.27065",
    "lat": "25.25499",
    "uploadedPhoto": null,
    "cat": null
  },
  {
    "id": 16,
    "catId": 4,
    "name": "test location",
    "description": "something",
    "street": "2122 Clairmont Rd",
    "city": "Atlanta",
    "state": "GA",
    "zip": "30030",
    "phone": "111",
    "website": "",
    "email": "",
    "photo": null,
    "lng": "41.27065",
    "lat": "25.25499",
    "uploadedPhoto": null,
    "cat": null
  },
  {
    "id": 17,
    "catId": 4,
    "name": "test location",
    "description": "something",
    "street": "2122 Clairmont Rd",
    "city": "Atlanta",
    "state": "GA",
    "zip": "30030",
    "phone": "111",
    "website": "",
    "email": "",
    "photo": null,
    "lng": "41.27065",
    "lat": "25.25499",
    "uploadedPhoto": null,
    "cat": null
  }
]